{
  "type": "FeatureCollection",
  "features": [
    {
      "type": "Feature",
      "properties": {
        "name": "Great Pyramid of Giza"
      },
      "geometry": {
        "coordinates": [
          31.13418908201885,
          29.979196055767687
        ],
        "type": "Point"
      }
    },
    {
      "type": "Feature",
      "properties": {
        "name": "Lighthouse of Alexandria"
      },
      "geometry": {
        "coordinates": [
          29.824670493706265,
          31.13829837181204
        ],
        "type": "Point"
      }
    },
    {
      "type": "Feature",
      "properties": {
        "name": "Colossus of Rhodes"
      },
      "geometry": {
        "coordinates": [
          27.138905377715957,
          36.613876220964556
        ],
        "type": "Point"
      }
    },
    {
      "type": "Feature",
      "properties": {
        "name": "Mausoleum of Halicarnassus"
      },
      "geometry": {
        "coordinates": [
          27.42463668733174,
          37.03670806086441
        ],
        "type": "Point"
      }
    },
    {
      "type": "Feature",
      "properties": {
        "name": "Statue of Zeus at Olympia"
      },
      "geometry": {
        "coordinates": [
          21.629108782411294,
          37.639406430375246
        ],
        "type": "Point"
      }
    },
    {
      "type": "Feature",
      "properties": {
        "name": "Hanging Gardens of Babylon"
      },
      "geometry": {
        "coordinates": [
          44.419534620511,
          32.5409001795539
        ],
        "type": "Point"
      }
    },
    {
      "type": "Feature",
      "properties": {
        "name": "Temple of Artemis"
      },
      "geometry": {
        "coordinates": [
          27.363847085243833,
          37.949680032722114
        ],
        "type": "Point"
      }
    }
  ]
}